[
  {
    "id": 1559969,
    "name": "Tỉnh Nghệ An",
    "lat": 19.33333,
    "lon": 104.833328
  },
  {
    "id": 1559970,
    "name": "Tỉnh Ninh Bình",
    "lat": 20.25,
    "lon": 105.833328
  },
  {
    "id": 1559971,
    "name": "Tỉnh Ninh Thuận",
    "lat": 11.75,
    "lon": 108.833328
  },
  {
    "id": 1559972,
    "name": "Tỉnh Sóc Trăng",
    "lat": 9.66667,
    "lon": 105.833328
  },
  {
    "id": 1559975,
    "name": "Tỉnh Trà Vinh",
    "lat": 9.83333,
    "lon": 106.25
  },
  {
    "id": 1559976,
    "name": "Tỉnh Tuyên Quang",
    "lat": 22.116671,
    "lon": 105.25
  },
  {
    "id": 1559977,
    "name": "Tỉnh Vĩnh Long",
    "lat": 10.16667,
    "lon": 106.0
  },
  {
    "id": 1559978,
    "name": "Tỉnh Yên Bái",
    "lat": 21.5,
    "lon": 104.666672
  },
  {
    "id": 1562412,
    "name": "Tỉnh Lào Cai",
    "lat": 22.33333,
    "lon": 104.0
  },
  {
    "id": 1564676,
    "name": "Tỉnh Tiền Giang",
    "lat": 10.41667,
    "lon": 106.166672
  },
  {
    "id": 1565033,
    "name": "Tỉnh Thừa Thiên-Huế",
    "lat": 16.33333,
    "lon": 107.583328
  },
  {
    "id": 1565088,
    "name": "Tỉnh Kon Tum",
    "lat": 14.75,
    "lon": 107.916672
  },
  {
    "id": 1566165,
    "name": "Tỉnh Thanh Hóa",
    "lat": 20.0,
    "lon": 105.5
  },
  {
    "id": 1566338,
    "name": "Tỉnh Thái Bình",
    "lat": 20.5,
    "lon": 106.333328
  },
  {
    "id": 1566557,
    "name": "Tỉnh Tây Ninh",
    "lat": 11.33333,
    "lon": 106.166672
  },
  {
    "id": 1567643,
    "name": "Tỉnh Sơn La",
    "lat": 21.16667,
    "lon": 104.0
  },
  {
    "id": 1568733,
    "name": "Tỉnh Quảng Trị",
    "lat": 16.75,
    "lon": 107.0
  },
  {
    "id": 1568758,
    "name": "Tỉnh Quảng Ninh",
    "lat": 21.25,
    "lon": 107.333328
  },
  {
    "id": 1568769,
    "name": "Tỉnh Quảng Ngãi",
    "lat": 15.0,
    "lon": 108.666672
  },
  {
    "id": 1568839,
    "name": "Tỉnh Quảng Bình",
    "lat": 17.5,
    "lon": 106.333328
  },
  {
    "id": 1569805,
    "name": "Tỉnh Phú Yên",
    "lat": 13.16667,
    "lon": 109.166672
  },
  {
    "id": 1572594,
    "name": "Tỉnh Hòa Bình",
    "lat": 20.33333,
    "lon": 105.25
  },
  {
    "id": 1575788,
    "name": "Tỉnh Long An",
    "lat": 10.66667,
    "lon": 106.166672
  },
  {
    "id": 1576632,
    "name": "Tỉnh Lạng Sơn",
    "lat": 21.75,
    "lon": 106.5
  },
  {
    "id": 1577882,
    "name": "Tỉnh Lâm Ðồng",
    "lat": 11.5,
    "lon": 108.333328
  },
  {
    "id": 1579008,
    "name": "Tỉnh Kiến Giang",
    "lat": 10.0,
    "lon": 105.166672
  },
  {
    "id": 1579634,
    "name": "Tỉnh Khánh Hòa",
    "lat": 12.33333,
    "lon": 109.0
  },
  {
    "id": 1580578,
    "name": "Thành phố Hồ Chí Minh",
    "lat": 10.83333,
    "lon": 106.666672
  },
  {
    "id": 1580700,
    "name": "Tỉnh Hà Tĩnh",
    "lat": 18.33333,
    "lon": 105.75
  },
  {
    "id": 1581019,
    "name": "Tỉnh Hà Tây",
    "lat": 20.83333,
    "lon": 105.666672
  },
  {
    "id": 1581030,
    "name": "Tỉnh Hà Giang",
    "lat": 22.75,
    "lon": 105.0
  },
  {
    "id": 1581088,
    "name": "Tỉnh Gia Lai",
    "lat": 13.75,
    "lon": 108.25
  },
  {
    "id": 1581129,
    "name": "Thủ Ðô Hà Nội",
    "lat": 21.116671,
    "lon": 105.883331
  },
  {
    "id": 1581188,
    "name": "Tỉnh Cần Thơ",
    "lat": 9.83333,
    "lon": 105.666672
  },
  {
    "id": 1581297,
    "name": "Thành Phố Hải Phòng",
    "lat": 20.83333,
    "lon": 106.583328
  },
  {
    "id": 1581882,
    "name": "Tỉnh Bình Thuận",
    "lat": 11.08333,
    "lon": 108.0
  },
  {
    "id": 1582562,
    "name": "Tỉnh Ðồng Tháp",
    "lat": 10.66667,
    "lon": 105.666672
  },
  {
    "id": 1582720,
    "name": "Tỉnh Ðồng Nai",
    "lat": 11.0,
    "lon": 107.166672
  },
  {
    "id": 1583477,
    "name": "Dien Bien Phu",
    "lat": 21.383329,
    "lon": 103.01667
  },
  {
    "id": 1584169,
    "name": "Tỉnh Ðắc Lắk",
    "lat": 12.83333,
    "lon": 108.166672
  },
  {
    "id": 1584534,
    "name": "Tỉnh Bà Rịa-Vũng Tàu",
    "lat": 10.58333,
    "lon": 107.25
  },
  {
    "id": 1586182,
    "name": "Tỉnh Cao Bằng",
    "lat": 22.66667,
    "lon": 106.0
  },
  {
    "id": 1587871,
    "name": "Tỉnh Bình Ðịnh",
    "lat": 14.16667,
    "lon": 109.0
  },
  {
    "id": 1587923,
    "name": "Bien Hoa",
    "lat": 10.95,
    "lon": 106.816673
  },
  {
    "id": 1587974,
    "name": "Tỉnh Bến Tre",
    "lat": 10.16667,
    "lon": 106.5
  },
  {
    "id": 1594446,
    "name": "Tỉnh An Giang",
    "lat": 10.5,
    "lon": 105.166672
  },
  {
    "id": 1905412,
    "name": "Tỉnh Bắc Ninh",
    "lat": 21.08333,
    "lon": 106.166672
  },
  {
    "id": 1905419,
    "name": "Tỉnh Bắc Giang",
    "lat": 21.33333,
    "lon": 106.333328
  },
  {
    "id": 1905468,
    "name": "Tỉnh Ðà Nẵng",
    "lat": 16.08333,
    "lon": 108.083328
  },
  {
    "id": 1905475,
    "name": "Tỉnh Bình Dương",
    "lat": 11.16667,
    "lon": 106.666672
  },
  {
    "id": 1905480,
    "name": "Tỉnh Bình Phước",
    "lat": 11.75,
    "lon": 106.916672
  },
  {
    "id": 1905497,
    "name": "Tỉnh Thái Nguyên",
    "lat": 21.66667,
    "lon": 105.833328
  },
  {
    "id": 1905516,
    "name": "Tỉnh Quảng Nam",
    "lat": 15.58333,
    "lon": 107.916672
  },
  {
    "id": 1905577,
    "name": "Tỉnh Phú Thọ",
    "lat": 21.33333,
    "lon": 105.166672
  },
  {
    "id": 1905626,
    "name": "Tỉnh Nam Ðịnh",
    "lat": 20.25,
    "lon": 106.25
  },
  {
    "id": 1905637,
    "name": "Tỉnh Hà Nam",
    "lat": 20.58333,
    "lon": 106.0
  },
  {
    "id": 1905669,
    "name": "Tỉnh Bắc Kạn",
    "lat": 22.16667,
    "lon": 105.833328
  },
  {
    "id": 1905675,
    "name": "Tỉnh Bạc Liêu",
    "lat": 9.25,
    "lon": 105.75
  },
  {
    "id": 1905678,
    "name": "Tỉnh Cà Mau",
    "lat": 9.08333,
    "lon": 105.083328
  },
  {
    "id": 1905686,
    "name": "Tỉnh Hải Dương",
    "lat": 20.91667,
    "lon": 106.333328
  },
  {
    "id": 1905699,
    "name": "Tỉnh Hưng Yên",
    "lat": 20.83333,
    "lon": 106.083328
  },
  {
    "id": 1905856,
    "name": "Tỉnh Vĩnh Phúc",
    "lat": 21.299999,
    "lon": 105.599998
  }
]